     2              OBSERVATION DATA    G (GPS)             RINEX VERSION / TYPE
GPS-DATA Ver 1.08                                           PGM / RUN BY / DATE
Zimmerwald LT88                                             COMMENT
BIT 2 OF LLI (+4) FLAGS DATA COLLECTED UNDER "AS" CONDITION COMMENT
                                                            COMMENT
ZIMM                                                        MARKER NAME
14001M004                                                   MARKER NUMBER
GPS-BASE            SWISSTOPO                               OBSERVER / AGENCY
2691                TRIMBLE 4000SSI     7.29                REC # / TYPE / VERS
99390               TRM29659.00     NONE                    ANT # / TYPE
  4331297.3380   567555.6400  4633133.7180                  APPROX POSITION XYZ
        0.0000        0.0000        0.0000                  ANTENNA: DELTA H/E/N
     1     1     0                                          WAVELENGTH FACT L1/2
     6    C1    P2    L1    L2    D1    D2                  # / TYPES OF OBSERV
    30                                                      INTERVAL
  2002     5    24     0     0    0.000000                  TIME OF FIRST OBS
  2002     5    24    23    59   30.000000                  TIME OF LAST OBS
    28                                                      # OF SATELLITES
   G01   765   765   765   765   765   765                  PRN / # OF OBS
   G02   982   982   982   982   982   982                  PRN / # OF OBS
   G03   733   733   733   733   733   733                  PRN / # OF OBS
   G04   980   980   980   980   980   980                  PRN / # OF OBS
   G05   807   807   807   807   807   807                  PRN / # OF OBS
   G06   765   765   765   765   765   765                  PRN / # OF OBS
   G07  1023  1023  1023  1023  1023  1023                  PRN / # OF OBS
   G08   717   717   717   717   717   717                  PRN / # OF OBS
   G09   803   803   803   803   803   803                  PRN / # OF OBS
   G10   862   862   862   862   862   862                  PRN / # OF OBS
   G11   780   780   780   780   780   780                  PRN / # OF OBS
   G13   779   779   779   779   779   779                  PRN / # OF OBS
   G14  1028  1028  1028  1028  1028  1028                  PRN / # OF OBS
   G15   837   837   837   837   837   837                  PRN / # OF OBS
   G17   900   900   900   900   900   900                  PRN / # OF OBS
   G18   940   940   940   940   940   940                  PRN / # OF OBS
   G20   797   797   797   797   797   797                  PRN / # OF OBS
   G21   939   939   939   939   939   939                  PRN / # OF OBS
   G22   848   848   848   848   848   848                  PRN / # OF OBS
   G23   978   978   978   978   978   978                  PRN / # OF OBS
   G24  1025  1025  1025  1025  1025  1025                  PRN / # OF OBS
   G25   995   995   995   995   995   995                  PRN / # OF OBS
   G26   731   731   731   731   731   731                  PRN / # OF OBS
   G27   721   721   721   721   721   721                  PRN / # OF OBS
   G28   981   981   981   981   981   981                  PRN / # OF OBS
   G29   773   773   773   773   773   773                  PRN / # OF OBS
   G30   770   770   770   770   770   770                  PRN / # OF OBS
   G31   704   704   704   704   704   704                  PRN / # OF OBS
                                                            END OF HEADER
 02  5 24  0  0  0.0320000  0  8G05G07G09G18G21G26G29G30
  31649765.19909  31649769.33709 -13044071.57709  -9995775.40409      2013.855
      1569.237
  32254084.06309  32254088.11909  -5302473.67709  -4013539.57109     -1793.153
     -1397.266
  30001811.50709  30001814.52009 -18399238.10209 -14174009.50809       135.396
       105.502
  33256418.11407  33256420.85706  -1312351.89706   4917453.79306     -2719.450
     -2119.049
  33601556.76206  33601561.19306  -4595919.11206  -1487777.82406      -657.528
      -512.364
  32343101.06009  32343104.84609    118197.88409   6001342.63009     -3794.333
     -2956.623
  30765850.58609  30765853.81009 -12377067.95709  -9505446.64309     -2529.222
     -1970.821
  34025384.16605  34025389.12405  -2399183.27205  -1703177.94805      2916.258
      2272.403
 02  5 24  0  0 30.0320000  0  8G05G07G09G18G21G26G29G30
  31638297.68009  31638302.18109 -13104334.73909 -10042733.66409      2003.162
      1560.905
  32264367.53309  32264371.83508  -5248433.59808  -3971430.40708     -1810.044
     -1410.423
  30001074.98309  30001078.01909 -18403108.34709 -14177025.27609       122.096
        95.139
  33271980.73707  33271985.33206  -1230570.54606   4981179.46506     -2733.167
     -2129.738
  33605362.68106  33605365.81006  -4575919.88906  -1472193.99806      -676.283
      -526.976
  32364787.81309  32364791.91509    232161.65909   6090145.53209     -3803.754
     -2963.964
  30780335.71209  30780339.05309 -12300948.50609  -9446132.80209     -2545.906
     -1983.822
  34008747.61906  34008754.23006  -2486615.52806  -1771306.77506      2912.012
      2269.103
 02  5 24  0  1  0.0320000  0  8G05G07G09G18G21G26G29G30
  31626890.27609  31626894.13309 -13164280.55009 -10089444.63809      1992.708
      1552.758
  32274746.72309  32274750.88408  -5193891.25108  -3928929.85908     -1826.608
     -1423.333
  30000413.64809  30000416.79009 -18406583.01509 -14179732.79909       109.043
        84.968
  33287620.96407  33287625.33606  -1148383.35806   5045221.37606     -2746.494
     -2140.118
  33609274.04506  33609278.11306  -4555362.58706  -1456175.34006      -694.712
      -541.336
  32386527.28109  32386531.24409    346403.68709   6179165.26309     -3812.870
     -2971.067
  30794915.14109  30794918.64609 -12224332.90309  -9386432.35909     -2562.314
     -1996.608
  33992132.61105  33992138.47205  -2573923.62605  -1839338.87405      2908.004
      2265.966
 02  5 24  0  1 30.0320000  0  8G05G07G09G18G21G26G29G30
  31615543.89409  31615547.97309 -13223905.65109 -10135905.70709      1982.006
      1544.420
  32285221.66609  32285225.59308  -5138845.37608  -3886036.96408     -1843.373
     -1436.395
  29999828.40709  29999831.83009 -18409658.90709 -14182129.59709        95.732
        74.595
  33303337.96807  33303341.68406  -1065790.78206   5109579.14506     -2759.934
     -2150.595
  33613292.49706  33613297.17406  -4534245.39006  -1439720.38006      -713.377
      -555.885
  32408319.83309  32408323.97109    460924.44309   6268402.17809     -3822.123
     -2978.277
  30809589.41109  30809592.88109 -12147219.98409  -9326344.39709     -2578.841
     -2009.485
  33975542.87505  33975549.68505  -2661103.86405  -1907271.34805      2903.743
      2262.654
 02  5 24  0  2  0.0320000  0  8G05G07G09G18G21G26G29G30
  31604258.13009  31604262.28009 -13283212.79909 -10182119.02109      1971.612
      1536.319
  32295791.43909  32295795.44809  -5083300.90509  -3842755.55309     -1859.752
     -1449.158
  29999318.39409  29999321.66509 -18412338.91209 -14184217.89709        82.746
        64.478
  33319130.49107  33319134.66406   -982799.41506   5174247.70606     -2772.984
     -2160.760
  33617417.83406  33617423.71905  -4512572.20605  -1422832.21405      -731.699
      -570.153
  32430164.47409  32430168.41309    575717.92709   6357851.61009     -3830.963
     -2985.166
  30824357.17509  30824360.64509 -12069614.91609  -9265872.93309     -2595.018
     -2022.091
  33958976.31205  33958980.94205  -2748158.69505  -1975106.04405      2899.719
      2259.513
 02  5 24  0  2 30.0320000  0  8G05G07G09G18G21G26G29G30
  31593032.23809  31593036.41109 -13342204.16309 -10228086.26409      1961.203
      1528.209
  32306454.94109  32306459.31309  -5027262.44509  -3799089.19409     -1876.057
     -1461.863
  29998883.31109  29998886.50009 -18414625.67209 -14185999.78309        69.767
        54.364
  33334997.78906  33335001.41106   -899415.14106   5239222.40606     -2785.891
     -2170.822
  33621646.58906  33621651.98106  -4490346.74606  -1405513.70106      -749.933
      -584.364
  32452059.87509  32452063.64909    690778.92809   6447509.48709     -3839.699
     -2991.973
  30839217.54209  30839220.84709 -11991522.41809  -9205021.65509     -2611.111
     -2034.631
  33942434.34805  33942439.63505  -2835089.93405  -2042844.54305      2895.757
      2256.431
 02  5 24  0  3  0.0320000  0  8G05G07G09G18G21G26G29G30
  31581867.00609  31581871.56509 -13400877.60809 -10273805.78009      1950.553
      1519.911
  32317212.61309  32317216.90309  -4970729.85909  -3755037.82309     -1892.563
     -1474.724
  29998523.23109  29998526.33809 -18416517.33709 -14187473.80009        56.541
        44.057
  33350939.68506  33350943.65906   -815639.63706   5304501.97406     -2798.942
     -2180.992
  33625981.56606  33625985.23506  -4467568.63806  -1387764.52906      -768.406
      -598.750
  32474006.02309  32474009.89109    806106.68909   6537375.24909     -3848.604
     -2998.913
  30854170.91909  30854174.48209 -11912942.63709  -9143790.68309     -2627.350
     -2047.286
  33925915.45806  33925921.01405  -2921895.25305  -2110484.81405      2891.475
      2253.103
 02  5 24  0  3 30.0320000  0  8G05G07G09G18G21G26G29G30
  31570762.08609  31570766.49309 -13459234.28209 -10319278.46509      1939.966
      1511.661
  32328064.20409  32328068.79908  -4913706.56408  -3710604.07808     -1908.917
     -1487.470
  29998238.33109  29998241.37809 -18418015.18909 -14188640.95409        43.381
        33.803
  33366954.71006  33366957.12506   -731477.54006   5370082.77106     -2811.796
     -2191.010
  33630420.67306  33630425.46705  -4444240.49405  -1369586.75705      -786.743
      -613.048
  32496001.96409  32496006.41909    921696.88309   6627445.48709     -3857.328
     -3005.709
  30869216.32209  30869219.56909 -11833879.18109  -9082182.82709     -2643.458
     -2059.838
  33909419.82305  33909425.33305  -3008575.30705  -2178027.64305      2887.230
      2249.781
 02  5 24  0  4  0.0320000  0  8G05G07G09G18G21G26G29G30
  31559718.14509  31559722.43609 -13517269.84609 -10364500.93009      1929.117
      1503.206
  32339008.58009  32339012.74208  -4856190.50008  -3665786.35008     -1925.419
     -1500.328
  29998028.84709  29998031.77809 -18419115.19909 -14189498.09609        29.995
        23.372
  33383044.22906  33383049.41006   -646928.64406   5435964.93506     -2824.763
     -2201.119
  33634964.99306  33634970.92506  -4420359.66606  -1350978.32706      -805.266
      -627.481
  32518048.27409  32518052.22509   1037550.65609   6717721.10209     -3866.193
     -3012.615
  30884353.78209  30884357.12209 -11754330.35209  -9020196.74809     -2659.747
     -2072.530
  33892951.53106  33892957.66105  -3095125.70505  -2245469.25505      2882.801
      2246.337
 02  5 24  0  4 30.0320000  0  8G05G07G09G18G21G26G29G30
  31548735.28609  31548739.74009 -13574985.58909 -10409474.18809      1918.597
      1495.008
  32350046.85609  32350050.86408  -4798185.26508  -3620587.45508     -1941.576
     -1512.917
  29997895.01309  29997897.99109 -18419818.83009 -14190046.37809        16.920
        13.184
  33399206.20106  33399210.63105   -561997.77105   5502144.80705     -2837.287
     -2210.877
  33639613.73205  33639619.55806  -4395928.88506  -1331941.36606      -823.444
      -641.646
  32540144.31009  32540148.17909   1153663.67609   6808198.74009     -3874.663
     -3019.217
  30899583.14209  30899586.51809 -11674299.78409  -8957835.28809     -2675.626
     -2084.902
  33876505.39505  33876515.40505  -3181547.33105  -2312810.65505      2878.632
      2243.072
 02  5 24  0  5  0.0320000  0  8G05G07G09G18G21G26G29G30
  31537813.89209  31537818.18309 -13632378.42609 -10454195.81909      1907.427
      1486.304
  32361178.11309  32361181.93508  -4739690.03208  -3575006.74608     -1958.281
     -1525.933
  29997836.99509  29997839.98409 -18420123.45809 -14190283.74509         3.220
         2.509
  33415439.83106  33415442.44505   -476685.92905   5568621.49005     -2850.313
     -2221.022
  33644367.88905  33644371.35905  -4370946.74405  -1312474.75805      -842.195
      -656.269
  32562289.01109  32562292.82109   1270035.87509   6898878.34109     -3883.636
     -3026.205
  30914904.23009  30914907.58309 -11593786.91209  -8895098.00709     -2692.064
     -2097.711
  33860083.20005  33860091.19405  -3267836.67805  -2380048.94505      2873.834
      2239.335
 02  5 24  0  5 30.0320000  0  8G05G07G09G18G21G26G29G30
  31526953.14709  31526957.44909 -13689450.77709 -10498667.74509      1896.934
      1478.131
  32372402.02009  32372405.64308  -4680709.52308  -3529047.90208     -1974.208
     -1538.343
  29997854.39609  29997857.40809 -18420031.71509 -14190212.25109        -9.795
        -7.632
  33431746.23406  33431750.61806   -390999.07806   5635390.36906     -2862.575
     -2230.574
  33649226.09306  33649230.24306  -4345417.42206  -1292581.81006      -860.216
      -670.294
  32584481.83909  32584486.21108   1386661.91908   6989755.73108     -3891.865
     -3032.622
  30930316.24109  30930319.68809 -11512796.57509  -8831988.68709     -2707.748
     -2109.932
  33843689.62606  33843695.59306  -3353996.03706  -2447185.91106      2869.677
      2236.108
 02  5 24  0  6  0.0320000  0  8G05G07G09G18G21G26G29G30
  31516154.64609  31516158.54909 -13746198.05509 -10542886.35409      1886.213
      1469.776
  32383718.01909  32383721.73508  -4621241.26308  -3482708.98208     -1990.323
     -1550.903
  29997948.18309  29997951.16009 -18419539.42909 -14189828.64809       -23.029
       -17.945
  33448123.03006  33448127.23906   -304936.52006   5702452.03506     -2874.915
     -2240.191
  33654189.27706  33654194.83306  -4319337.68906  -1272259.95206      -878.425
      -684.486
  32606723.73509  32606728.24808   1503543.38608   7080832.14608     -3900.215
     -3039.127
  30945819.55609  30945823.04909 -11431326.55609  -8768505.57809     -2723.580
     -2122.269
  33827318.76406  33827324.83705  -3440020.49205  -2514217.72505      2865.262
      2232.661
 02  5 24  0  6 30.0320000  0  8G05G07G09G18G21G26G29G30
  31505418.18109  31505421.95509 -13802618.95309 -10586850.65409      1875.307
      1461.277
  32395127.08909  32395131.67308  -4561286.33608  -3435990.85608     -2006.538
     -1563.537
  29998118.25909  29998121.26009 -18418645.35909 -14189131.96609       -36.440
       -28.395
  33464572.60206  33464575.70805   -218500.76105   5769804.47605     -2887.318
     -2249.858
  33659256.32706  33659261.49606  -4292708.00306  -1251509.57606      -896.750
      -698.756
  32629014.01709  32629017.87408   1620678.41608   7172106.14908     -3908.626
     -3045.682
  30961413.69309  30961417.30409 -11349378.43809  -8704649.92209     -2739.508
     -2134.681
  33810974.20305  33810981.72905  -3525908.15705  -2581143.04405      2860.727
      2229.125
 02  5 24  0  7  0.0320000  0  8G05G07G09G18G21G26G29G30
  31494743.40809  31494747.67509 -13858713.36709 -10630560.52009      1864.174
      1452.600
  32406628.52309  32406632.61408  -4500847.23408  -3388895.43808     -2022.881
     -1576.272
  29998364.82909  29998367.91209 -18417349.80709 -14188122.43409       -50.073
       -39.018
  33481090.27106  33481093.64706   -131695.95706   5837444.53106     -2899.785
     -2259.567
  33664428.00706  33664431.12505  -4265530.15205  -1230332.05505      -915.294
      -713.216
  32651351.86609  32651355.96908   1738063.89908   7263575.33108     -3917.169
     -3052.339
  30977098.32909  30977102.05709 -11266954.47609  -8640423.48509     -2755.572
     -2147.197
  33794657.61206  33794661.31705  -3611658.89505  -2647961.68205      2855.880
      2225.359
 02  5 24  0  7 30.0320000  0  8G05G07G09G18G21G26G29G30
  31484130.82709  31484134.89509 -13914483.63309 -10674017.80909      1853.402
      1444.206
  32418220.82609  32418225.32708  -4439928.23808  -3341426.07808     -2038.829
     -1588.699
  29998687.25009  29998690.33309 -18415655.17209 -14186801.93409       -63.342
       -49.359
  33497677.73606  33497679.68106    -44528.07606   5905367.45506     -2911.837
     -2268.967
  33669703.48306  33669708.34706  -4237807.96806  -1208730.34606      -933.338
      -727.279
  32673736.07909  32673740.65108   1855694.51508   7355235.48408     -3925.296
     -3058.669
  30992873.02809  30992876.87309 -11184059.48709  -8575830.01209     -2771.215
     -2159.388
  33778364.52306  33778370.97005  -3697274.76405  -2714675.13405      2851.326
      2221.810
 02  5 24  0  8  0.0320000  0  8G05G07G09G18G21G26G29G30
  31473581.00409  31473584.61409 -13969922.39909 -10717216.80109      1842.303
      1435.560
  32429905.84709  32429909.98508  -4378524.30608  -3293578.85608     -2054.984
     -1601.286
  29999087.09709  29999090.03909 -18413554.53509 -14185165.07209       -76.918
       -59.936
  33514335.42806  33514339.30805     43006.79105   5973576.37005     -2924.035
     -2278.466
  33675083.55606  33675088.83106  -4209535.85406  -1186700.14906      -951.674
      -741.563
  32696168.25909  32696172.36208   1973574.84908   7447090.25008     -3933.597
     -3065.141
  31008737.86209  31008741.30809 -11100688.52709  -8510865.64909     -2787.059
     -2171.733
  33762099.09405  33762104.88505  -3782747.58505  -2781277.20205      2846.593
      2218.105
 02  5 24  0  8 30.0000000  0  8G05G07G09G18G21G26G29G30
  21569941.95309  21569945.84509 -14025037.03309 -10760163.20809      1831.769
      1427.352
  22548530.23509  22548534.50208  -4316641.35608  -3245358.36408     -2070.511
     -1613.385
  20106411.87009  20106414.95309 -18411053.63609 -14183216.31509       -89.923
       -70.070
  23637910.18806  23637913.59905    130902.06805   6042066.09405     -2935.560
     -2287.442
  23787416.20506  23787420.69506  -4180720.32306  -1164246.52006      -969.396
      -755.374
  22825495.39509  22825499.97808   2091700.07208   7539135.83408     -3941.246
     -3071.098
  21131541.34009  21131544.57509 -11016847.06709  -8445534.65709     -2802.285
     -2183.598
  23852708.60506  23852714.24405  -3868085.81105  -2847774.36305      2842.321
      2214.789
 02  5 24  0  9  0.0000000  0  8G05G07G09G18G21G26G29G30
  21559517.16109  21559521.02909 -14079818.39109 -10802849.93909      1820.576
      1418.628
  22560397.45609  22560401.88708  -4254280.28908  -3196765.32508     -2086.630
     -1625.947
  20106964.92009  20106968.10909 -18408147.29309 -14180951.62409      -103.586
       -80.717
  23654704.27306  23654706.99206    219153.55806   6110833.41006     -2947.604
     -2296.836
  23793002.79906  23793007.39405  -4151359.48905  -1141367.95305      -987.744
      -769.665
  22848019.59908  22848023.88908   2210064.69008   7631367.95708     -3949.458
     -3077.495
  21147585.14909  21147588.53709 -10932537.55609  -8379838.96409     -2818.075
     -2195.903
  23836497.15805  23836503.99205  -3953277.80105  -2914157.52305      2837.383
      2210.939
 02  5 24  0  9 30.0000000  0  9G05G07G09G14G18G21G26G29G30
  21549155.48109  21549159.29009 -14134270.99109 -10845280.48409      1809.623
      1410.094
  22572354.60009  22572358.65608  -4191444.25308  -3147802.16908     -2102.399
     -1638.235
  20107594.49509  20107597.64809 -18404838.36609 -14178373.23009      -116.976
       -91.151
  25206190.24705          .00001    -66967.98201          .00011      2910.077
          .000
  23671564.28006  23671568.31205    307757.48105   6179875.34105     -2959.267
     -2305.928
  23798693.88006  23798699.00306  -4121456.70206  -1118067.07106     -1005.741
      -783.694
  22870588.89508  22870592.99708   2328666.68808   7723785.05108     -3957.315
     -3083.624
  21163716.84009  21163720.48509 -10847762.74409  -8313780.69209     -2833.533
     -2207.947
  23820312.68006  23820318.36505  -4038328.79205  -2980430.92105      2832.726
      2207.316
 02  5 24  0 10  0.0000000  0  9G05G07G09G14G18G21G26G29G30
  21538856.17409  21538859.99609 -14188393.29209 -10887453.67309      1798.684
      1401.571
  22584402.11909  22584405.84708  -4128133.80808  -3098469.34608     -2118.118
     -1650.482
  20108301.18909  20108304.27209 -18401125.49409 -14175480.08309      -130.378
      -101.593
  25189589.89804          .00001   -154201.59501          .00011      2905.649
          .000
  23688492.16006  23688495.50106    396711.70806   6249190.27906     -2970.812
     -2314.913
  23804486.85806  23804493.28205  -4091012.26005  -1094344.16505     -1023.718
      -797.696
  22893203.16709  22893207.39908   2447504.89708   7816386.20608     -3965.080
     -3089.669
  21179937.33409  21179941.00309 -10762523.60609  -8247360.61209     -2848.911
     -2219.929
  23804155.35606  23804159.50605  -4123236.94605  -3046592.90905      2827.970
      2203.607
 02  5 24  0 10 30.0000000  0  9G05G07G09G14G18G21G26G29G30
  21528620.50909  21528624.49409 -14242183.00109 -10929367.69209      1787.491
      1392.849
  22596540.34509  22596544.07208  -4064349.19708  -3048767.04408     -2133.990
     -1662.852
  20109084.89509  20109087.87209 -18397006.68709 -14172270.61409      -144.013
      -112.218
  25173017.41104  25173020.84504   -241297.36504    -29394.32804      2900.899
      2260.453
  23705486.41706  23705491.16406    486014.72406   6318776.94606     -2982.491
     -2324.021
  23810383.83906  23810389.41905  -4060025.80705  -1070198.89205     -1041.852
      -811.820
  22915862.04209  22915866.01608   2566578.43608   7909170.73508     -3972.956
     -3095.808
  21196246.40909  21196249.51509 -10676820.29109  -8180578.83609     -2864.453
     -2232.041
  23788024.79706  23788030.00106  -4207999.48706  -3112641.51806      2823.020
      2199.732
 02  5 24  0 11  0.0000000  0  9G05G07G09G14G18G21G26G29G30
  21518447.29209  21518451.65209 -14295643.22709 -10971024.97209      1776.364
      1384.177
  22608767.43309  22608771.50108  -4000095.85108  -2998699.49408     -2149.717
     -1675.103
  20109945.23609  20109948.34309 -18392485.53709 -14168747.63409      -157.556
      -122.770
  25156469.12505  25156477.07305   -328257.02905    -97154.90305      2896.243
      2256.784
  23722544.98906  23722550.58106    575659.56206   6388629.99606     -2993.970
     -2332.962
  23816382.41806  23816389.01805  -4028502.45005  -1045635.23505     -1059.852
      -825.859
  22938564.62608  22938570.10108   2685881.10408   8002133.80008     -3980.687
     -3101.830
  21212642.28009  21212645.48009 -10590658.67509  -8113439.93909     -2879.828
     -2244.021
  23771921.77706  23771926.68805  -4292619.28005  -3178578.90505      2818.159
      2195.957
 02  5 24  0 11 30.0000000  0  9G05G07G09G14G18G21G26G29G30
  21508337.88309  21508341.79809 -14348767.55409 -11012420.51109      1765.273
      1375.537
  22621084.26509  22621087.55908  -3935369.85408  -2948263.64608     -2165.327
     -1687.268
  20110883.11209  20110886.23009 -18387555.79309 -14164906.27109      -171.070
      -133.301
  25139948.21205  25139952.19805   -415072.65905   -164803.42605      2891.491
      2253.118
  23739669.75706  23739674.02305    665648.79705   6458751.39305     -3005.292
     -2341.778
  23822483.49106  23822487.28906  -3996437.38206  -1020649.49906     -1077.796
      -839.835
  22961311.50808  22961316.17308   2805416.28608   8095278.03008     -3988.296
     -3107.758
  21229126.30809  21229129.96509 -10504034.92209  -8045940.93709     -2895.075
     -2255.902
  23755847.74706  23755854.40505  -4377089.52705  -3244399.65805      2813.256
      2192.144
 02  5 24  0 12  0.0000000  0  9G05G07G09G14G18G21G26G29G30
  21498292.96709  21498297.15109 -14401554.07509 -11053552.82009      1753.982
      1366.735
  22633490.93108  22633495.04508  -3870171.60908  -2897459.81108     -2181.077
     -1699.539
  20111899.48409  20111902.56709 -18382215.73109 -14160745.17409      -184.768
      -143.976
  25123454.78504  25123449.24104   -501740.45804   -232336.81704      2886.525
      2249.210
  23756859.17206  23756864.11906    755980.40106   6529139.53406     -3016.654
     -2350.634
  23828689.03406  23828693.13606  -3963830.49906   -995241.53806     -1095.833
      -853.888
  22984102.07908  22984106.48608   2925182.83708   8188602.57508     -3995.968
     -3113.741
  21245698.13809  21245701.72509 -10416949.81809  -7978082.43909     -2910.423
     -2267.861
  23739802.40206  23739807.49005  -4461407.96505  -3310102.22905      2808.165
      2188.168
 02  5 24  0 12 30.0000000  0  9G05G07G09G14G18G21G26G29G30
  21488311.93009  21488316.20809 -14454004.45709 -11094423.20909      1743.018
      1358.196
  22645986.46908  22645991.41608  -3804505.22308  -2846291.19608     -2196.396
     -1711.476
  20112993.27409  20112996.28609 -18376467.39609 -14156265.94909      -198.144
      -154.398
  25106990.21204  25106996.34205   -588260.67705   -299755.06505      2881.820
      2245.567
  23774112.35906  23774115.58205    846648.90905   6599790.23205     -3027.575
     -2359.144
  23834995.82106  23835000.14606  -3930685.39906   -969414.19806     -1113.521
      -867.668
  23006936.25208  23006940.61308   3045176.00808   8282103.68408     -4003.243
     -3119.410
  21262356.87409  21262360.37909 -10329407.55209  -7909867.71509     -2925.383
     -2279.517
  23723785.81906  23723791.65606  -4545575.87006  -3375687.48006      2803.365
      2184.428
 02  5 24  0 13  0.0000000  0  9G05G07G09G14G18G21G26G29G30
  21478395.50009  21478399.72009 -14506114.66109 -11135028.52709      1731.426
      1349.159
  22658571.78508  22658576.58008  -3738368.77908  -2794756.31408     -2212.271
     -1723.850
  20114165.69509  20114168.69609 -18370306.83809 -14151465.51009      -212.130
      -165.297
  25090555.57505  25090560.73305   -674627.53905   -367053.79405      2876.411
      2241.351
  23791430.56806  23791435.86706    937654.91506   6670703.90306     -3039.017
     -2368.064
  23841406.02706  23841410.34105  -3896999.54205   -943165.51105     -1131.758
      -881.902
  23029813.58008  23029817.97508   3165397.03608   8375782.35308     -4011.050
     -3125.494
  21279102.94809  21279106.41809 -10241406.38909  -7841295.40709     -2940.889
     -2291.602
  23707798.81606  23707804.86406  -4629588.67506  -3441151.85906      2797.937
      2180.216
 02  5 24  0 13 30.0000000  0  9G05G07G09G14G18G21G26G29G30
  21468544.10009  21468548.08509 -14557884.75809 -11175368.80509      1720.057
      1340.303
  22671246.21108  22671250.29108  -3671765.00108  -2742857.25008     -2227.848
     -1735.985
  20115416.43909  20115419.61609 -18363734.44809 -14146344.16409      -225.891
      -176.020
  25074148.91504  25074152.26804   -760839.55304   -434231.78104      2871.156
      2237.215
  23808811.98906  23808815.63505   1028994.02605   6741877.17105     -3050.098
     -2376.691
  23847919.25806  23847923.31306  -3862775.22606   -916497.24806     -1149.725
      -895.891
  23052733.63108  23052738.02707   3285842.71507   8469636.07307     -4018.506
     -3131.303
  21295935.73709  21295939.20709 -10152949.54009  -7772368.01809     -2956.095
     -2303.449
  23691841.14806  23691846.67006  -4713446.25206  -3506495.31106      2792.746
      2176.170
 02  5 24  0 14  0.0000000  0  9G05G07G09G14G18G21G26G29G30
  21458756.36609  21458760.52809 -14609319.27209 -11215447.58209      1709.131
      1331.786
  22684008.76309  22684012.71408  -3604700.57408  -2690599.25308     -2242.895
     -1747.708
  20116744.52309  20116747.64109 -18356754.87009 -14140905.52809      -239.201
      -186.390
  25057773.94105  25057775.38205   -846899.29305   -501291.31305      2866.349
      2233.508
  23826254.77206  23826260.36305   1120658.20105   6813303.72505     -3060.618
     -2384.894
  23854532.96906  23854537.54106  -3828018.55406   -889414.12306     -1167.168
      -909.483
  23075694.99208  23075700.15007   3406505.48907   8563658.95407     -4025.456
     -3136.717
  21312853.90809  21312857.36609 -10064043.82209  -7703090.86509     -2970.728
     -2314.851
  23675912.07806  23675918.57206  -4797152.61706  -3571720.84906      2787.931
      2172.398
 02  5 24  0 14 30.0000000  0  9G05G07G09G14G18G21G26G29G30
  21449033.16009  21449037.20409 -14660414.87709 -11255262.27509      1697.619
      1322.818
  22696858.04409  22696861.72408  -3537174.79408  -2637981.75608     -2258.431
     -1759.815
  20118150.78709  20118153.77609 -18349365.11109 -14135147.26609      -253.080
      -197.206
  25041426.72705  25041429.90305   -932802.13805   -568228.53505      2860.875
      2229.251
  23843759.81306  23843764.42006   1212646.72206   6884982.96806     -3071.570
     -2393.429
  23861248.69006  23861252.81605  -3792728.85405   -861915.68405     -1185.124
      -923.474
  23098698.04808  23098703.32307   3527385.70807   8657851.27907     -4032.843
     -3142.473
  21329857.71709  21329861.42109  -9974688.71909  -7633463.54009     -2985.865
     -2326.648
  23660012.48406  23660017.50106  -4880704.14406  -3636825.80406      2782.554
      2168.224
 02  5 24  0 15  0.0000000  0  9G05G07G09G14G18G21G26G29G30
  21439375.38909  21439379.31609 -14711165.87509 -11294808.46109      1686.126
      1313.865
  22709796.09409  22709799.91508  -3469184.43808  -2585002.25408     -2273.906
     -1771.875
  20119635.98909  20119638.91909 -18341559.52809 -14129064.99009      -266.942
      -208.007
  25025112.12705  25025112.95905  -1018540.63105   -635037.68905      2855.360
      2224.968
  23861327.52006  23861329.95805   1304961.37705   6956916.39305     -3082.379
     -2401.850
  23868066.21106  23868070.95806  -3756902.09206   -833998.73406     -1202.986
      -937.390
  23121742.65808  23121747.21707   3648485.99407   8752215.10007     -4040.144
     -3148.165
  21346947.60209  21346951.42409  -9884881.09109  -7563483.59909     -3000.923
     -2338.380
  23644143.87106  23644148.60706  -4964094.70706  -3701805.36406      2777.155
      2164.015
 02  5 24  0 15 30.0000000  0  9G05G07G09G14G18G21G26G29G30
  21429782.02809  21429785.93209 -14761580.04509 -11334092.18409      1674.720
      1304.976
  22722820.53808  22722824.78108  -3400739.62208  -2531668.62908     -2289.173
     -1783.772
  20121199.06009  20121202.02509 -18333346.27509 -14122665.04709      -280.708
      -218.734
  25008824.97504  25008827.43705  -1104120.60205   -701723.26605      2849.873
      2220.682
  23878953.50205  23878960.81705   1397590.81105   7029095.06705     -3093.002
     -2410.131
  23874984.13906  23874987.83106  -3720547.84506   -805670.78006     -1220.718
      -951.210
  23144827.14808  23144831.74307   3769795.49507   8846741.92107     -4047.265
     -3153.712
  21364121.47409  21364125.30809  -9794631.57709  -7493159.32609     -3015.783
     -2349.961
  23628304.28306  23628309.83906  -5047331.67206  -3766665.11906      2771.855
      2159.890
 02  5 24  0 16  0.0000000  0  9G05G07G09G14G18G21G26G29G30
  21420252.70609  21420256.65609 -14811655.08309 -11373111.65909      1663.511
      1296.241
  22735931.77708  22735935.99708  -3331840.54808  -2477981.03208     -2304.192
     -1795.474
  20122840.00109  20122842.95509 -18324723.32309 -14115945.86309      -294.252
      -229.288
  24992568.97104  24992569.95605  -1189538.34705   -768282.61705      2844.541
      2216.507
  23896640.50906  23896643.94405   1490533.32705   7101517.65705     -3103.242
     -2418.106
  23882002.34506  23882006.56506  -3683665.74806   -776931.48106     -1238.161
      -964.806
  23167951.36008  23167956.54107   3891313.63107   8941431.31807     -4054.043
     -3158.990
  21381379.44309  21381382.78409  -9703940.43209  -7422490.92509     -3030.379
     -2361.333
  23612494.29706  23612501.48306  -5130412.45406  -3831403.31906      2766.762
      2155.905
 02  5 24  0 16 30.0000000  0  9G05G07G09G14G18G21G26G29G30
  21410789.41409  21410793.16509 -14861386.53309 -11411863.39209      1652.049
      1287.309
  22749129.66708  22749134.25008  -3262485.10808  -2423937.83108     -2319.363
     -1807.293
  20124559.47209  20124562.36709 -18315686.33909 -14108904.05309      -308.078
      -240.060
  24976348.36905  24976349.30704  -1274787.56804   -834710.47004      2838.882
      2212.115
  23914387.17406  23914390.93705   1583789.60905   7174184.81205     -3113.679
     -2426.241
  23889121.84706  23889125.39906  -3646253.51206   -747779.09606     -1255.822
      -978.569
  23191115.35208  23191119.59507   4013041.85807   9036284.42707     -4061.016
     -3164.428
  21398721.66309  21398725.47309  -9612805.85609  -7351476.99309     -3045.143
     -2372.840
  23596715.04406  23596719.66306  -5213332.07706  -3896015.92706      2761.365
      2151.709
 02  5 24  0 17  0.0000000  0  9G05G07G09G14G18G21G26G29G30
  21401392.53909  21401396.27809 -14910767.61009 -11450342.11709      1640.164
      1278.050
  22762415.09208  22762419.68708  -3192669.08808  -2369535.73908     -2334.884
     -1819.389
  20126359.30909  20126362.25109 -18306228.83009 -14101534.56409      -322.278
      -251.126
  24960160.64305  24960163.80805  -1359859.90705   -901000.46505      2832.721
      2207.315
  23932193.24706  23932197.73705   1677362.67805   7247098.79905     -3124.383
     -2434.580
  23896343.15606  23896348.04406  -3608306.71206   -718210.18206     -1273.788
      -992.564
  23214320.25207  23214324.73007   4134983.81607   9131304.07507     -4068.279
     -3170.086
  21416149.24509  21416152.90209  -9521223.78109  -7280114.37509     -3060.173
     -2384.549
  23580967.93006  23580973.76706  -5296083.34306  -3960497.22206      2755.553
      2147.178
 02  5 24  0 17 30.0000000  0  9G05G07G09G14G18G21G26G29G30
  21392061.18609  21392065.10109 -14959803.74609 -11488552.05609      1628.693
      1269.110
  22775786.89908  22775790.92007  -3122400.19807  -2314780.75107     -2349.927
     -1831.110
  20128237.75809  20128240.74709 -18296356.62009 -14093841.93009      -336.076
      -261.878
  24944005.17105  24944008.24205  -1444758.78105   -967155.39805      2826.972
      2202.833
  23950057.89406  23950061.31605   1771243.14205   7320252.29305     -3134.528
     -2442.479
  23903664.33106  23903669.51306  -3569832.64206   -688230.41306     -1291.332
     -1006.236
  23237563.55808  23237567.84807   4257131.12607   9226483.73807     -4075.060
     -3175.367
  21433660.49909  21433664.27409  -9429202.31709  -7208409.35509     -3074.756
     -2395.913
  23565251.91106  23565257.94806  -5378671.30706  -4024851.40506      2750.124
      2142.945
 02  5 24  0 18  0.0000000  0  9G05G07G09G14G18G21G26G29G30
  21382796.38809  21382800.01009 -15008490.68409 -11526489.89009      1617.319
      1260.246
  22789245.33508  22789249.41507  -3051676.64107  -2259671.48507     -2364.787
     -1842.689
  20130196.19109  20130199.30909 -18286065.51709 -14085822.88109      -349.781
      -272.558
  24927882.88405  24927885.49805  -1529478.26805  -1033170.47805      2821.207
      2198.356
  23967981.65306  23967987.19805   1865431.57805   7393645.75005     -3144.476
     -2450.231
  23911086.58806  23911092.25005  -3530828.65405   -657837.71805     -1308.701
     -1019.769
  23260847.47608  23260852.14207   4379485.16107   9321824.48907     -4081.645
     -3180.501
  21451255.33509  21451258.78209  -9336739.86509  -7136360.72109     -3089.167
     -2407.144
  23549568.26207  23549572.59906  -5461091.31206  -4089074.67206      2744.783
      2138.790
 02  5 24  0 18 30.0000000  0  9G05G07G09G14G18G21G26G29G30
  21373597.03709  21373600.35509 -15056833.19509 -11564159.33209      1605.609
      1251.123
  22802788.88908  22802793.20308  -2980505.46608  -2204213.42708     -2379.860
     -1854.440
  20132233.31409  20132236.42009 -18275360.43809 -14077481.26309      -363.800
      -283.480
  24911795.72205  24911792.03004  -1614021.10804  -1099047.96304      2815.056
      2193.565
  23985961.27405  23985965.89305   1959919.21705   7467272.39305     -3154.616
     -2458.130
  23918608.04006  23918613.03405  -3491301.54505   -627037.37305     -1326.324
     -1033.503
  23284168.56907  23284173.11707   4502038.30507   9417320.38707     -4088.443
     -3185.799
  21468932.99109  21468936.60209  -9243843.95209  -7063974.32309     -3103.797
     -2418.542
  23533915.17807  23533920.40606  -5543347.46506  -4153170.18006      2739.061
      2134.327
 02  5 24  0 19  0.0000000  0  9G05G07G09G14G18G21G26G29G30
  21364463.24709  21364466.98609 -15104831.42009 -11601560.50509      1594.165
      1242.205
  22816417.27709  22816421.42708  -2908889.53508  -2148408.81108     -2394.637
     -1865.953
  20134349.04009  20134352.07609 -18264241.87209 -14068817.44409      -377.542
      -294.189
  24895741.58705  24895743.90805  -1698385.95105  -1164786.74905      2809.138
      2188.933
  24003999.21606  24004003.43605   2054702.19505   7541129.10605     -3164.356
     -2465.741
  23926228.75406  23926232.73906  -3451253.91306   -595831.44006     -1343.616
     -1046.974
  23307526.66107  23307531.91207   4624787.36807   9512968.95407     -4094.887
     -3190.818
  21486692.61409  21486696.06009  -9150517.24909  -6991252.24509     -3118.080
     -2429.672
  23518293.95207  23518298.54707  -5625439.65407  -4217138.01007      2733.614
      2130.079
 02  5 24  0 19 30.0000000  0  9G05G07G09G14G18G21G26G29G30
  21355395.27709  21355398.98109 -15152483.39109 -11638691.87609      1582.534
      1233.143
  22830129.33208  22830133.00108  -2836829.14108  -2092257.84208     -2409.498
     -1877.531
  20136543.88809  20136546.87709 -18252707.83809 -14059829.88009      -391.487
      -305.055
  24879721.05104  24879729.11605  -1782569.14905  -1230383.97805      2802.967
      2184.118
  24022091.14506  24022096.04505   2149778.88405   7615214.76505     -3174.167
     -2473.381
  23933949.27906  23933956.03106  -3410685.42106   -564219.64206     -1361.036
     -1060.552
  23330922.19007  23330926.62107   4747731.25907   9608769.33707     -4101.437
     -3195.923
  21504533.85009  21504537.40209  -9056760.61109  -6918195.14509     -3132.428
     -2440.852
  23502703.33407  23502708.23406  -5707365.44406  -4280976.19506      2727.973
      2125.683
 02  5 24  0 20  0.0000000  0  9G05G07G09G14G18G21G26G29G30
  21346393.44609  21346397.27909 -15199788.24509 -11675552.76509      1571.204
      1224.314
  22843926.61008  22843930.70108  -2764326.21708  -2035762.04108     -2423.969
     -1888.808
  20138817.99709  20138820.82209 -18240757.80509 -14050518.16609      -405.103
      -315.665
  24863736.93405  24863742.64304  -1866567.68104  -1295837.29504      2797.018
      2179.525
  24040238.88906  24040241.84305   2245145.79505   7689526.54005     -3183.537
     -2480.677
  23941767.13306  23941772.15105  -3369597.73305   -532203.26705     -1378.057
     -1073.806
  23354354.50307  23354359.49707   4870868.00407   9704719.98007     -4107.587
     -3200.712
  21522456.48509  21522460.36509  -8962575.93809  -6844804.52809     -3146.445
     -2451.773
  23487145.33006  23487151.26206  -5789123.59706  -4344683.67906      2722.629
      2121.533
 02  5 24  0 20 30.0000000  0  9G05G07G09G14G18G21G26G29G30
  21337457.82709  21337461.90609 -15246745.34509 -11712142.67209      1559.491
      1215.187
  22857807.08108  22857810.75007  -2691382.38807  -1978922.68307     -2438.737
     -1900.315
  20141171.20609  20141174.20709 -18228391.53609 -14040882.10909      -419.097
      -326.569
  24847787.51405  24847789.30705  -1950379.25905  -1361144.86305      2790.612
      2174.509
  24058441.95706  24058446.32905   2340800.20705   7764062.32005     -3193.181
     -2488.189
  23949684.47706  23949688.99006  -3327992.24906   -499783.43106     -1395.400
     -1087.323
  23377822.81707  23377827.85807   4994195.09307   9800818.96407     -4113.990
     -3205.707
  21540460.39909  21540463.89309  -8867965.32509  -6771082.00109     -3160.722
     -2462.899
  23471618.99906  23471624.67206  -5870712.96106  -4408259.66306      2716.887
      2117.048
 02  5 24  0 21  0.0000000  0  9G05G07G09G14G18G21G26G29G30
  21328588.84409  21328592.81809 -15293351.44209 -11748459.07609      1547.873
      1206.133
  22871771.75308  22871775.79707  -2617996.80107  -1921739.11407     -2453.347
     -1911.699
  20143604.22309  20143607.20009 -18215605.98009 -14030919.33409      -432.996
      -337.399
  24831874.09105  24831876.51805  -2033998.63405  -1426302.88005      2784.281
      2169.568
  24076698.31706  24076702.58405   2436741.51705   7838821.66205     -3202.589
     -2495.512
  23957700.92306  23957703.83005  -3285867.57405   -466959.03505     -1412.607
     -1100.731
  23401327.92807  23401332.41807   5117713.00307   9897066.63307     -4120.219
     -3210.559
  21558545.55209  21558549.04509  -8772928.15909  -6697027.09309     -3174.793
     -2473.863
  23456125.98407  23456129.20806  -5952129.63806  -4471701.12406      2711.201
      2112.615
 02  5 24  0 21 30.0000000  0  9G05G07G09G14G18G21G26G29G30
  21319785.77709  21319789.63409 -15339611.40509 -11784505.76809      1536.183
      1197.024
  22885819.35708  22885823.65907  -2544176.81907  -1864217.05407     -2467.914
     -1923.049
  20146116.21409  20146119.00309 -18202405.94609 -14020633.59209      -446.960
      -348.280
  24815998.40405  24816001.13505  -2117429.01405  -1491313.46305      2777.813
      2164.552
  24095008.98906  24095012.79805   2532961.04905   7913797.81505     -3211.960
     -2502.810
  23965814.99706  23965821.17406  -3243230.70006   -433735.52906     -1429.797
     -1114.127
  23424867.17407  23424871.82807   5241413.90607   9993456.89907     -4126.448
     -3215.409
  21576710.11309  21576713.72409  -8677472.03909  -6622645.73609     -3188.861
     -2484.824
  23440665.28807  23440668.24206  -6033378.25906  -4535011.62306      2705.422
      2108.119
 02  5 24  0 22  0.0000000  0  9G05G07G09G14G18G21G26G29G30
  21311049.12209  21311053.44809 -15385522.76809 -11820280.81209      1524.413
      1187.853
  22899949.52108  22899953.13107  -2469922.37507  -1806356.45207     -2482.496
     -1934.411
  20148707.21209  20148709.97809 -18188789.11209 -14010023.07509      -460.995
      -359.216
  24800159.48505  24800163.52905  -2200665.90605  -1556173.29605      2771.178
      2159.356
  24113371.10806  24113378.18805   2629457.42805   7988989.72905     -3221.267
     -2510.078
  23974025.39106  23974031.51006  -3200081.30306   -400112.65706     -1446.984
     -1127.524
  23448441.46807  23448446.69607   5365297.31507  10089989.36307     -4132.612
     -3220.216
  21594954.33709  21594957.81909  -8581597.30309  -6547938.18109     -3202.925
     -2495.784
  23425236.39307  23425240.95306  -6114455.84006  -4598188.81306      2699.577
      2103.561
 02  5 24  0 22 30.0000000  0  9G05G07G09G14G18G21G26G29G30
  21302379.74909  21302383.67509 -15431080.79309 -11855780.54209      1512.646
      1178.684
  22914162.58508  22914166.34808  -2395231.41508  -1748155.68908     -2497.020
     -1945.727
  20151378.83009  20151381.59609 -18174751.06709 -13999084.33509      -475.020
      -370.145
  24784358.67905  24784362.48805  -2283702.93405  -1620877.46405      2764.458
      2154.118
  24131787.14406  24131793.05205   2726231.60105   8064398.00205     -3230.451
     -2517.237
  23982334.77606  23982338.93706  -3156416.65406   -366088.26306     -1464.106
     -1140.862
  23472050.51207  23472055.17807   5489364.87307  10186665.32007     -4138.694
     -3224.953
  21613278.88109  21613282.82009  -8485301.77509  -6472902.73609     -3216.877
     -2506.656
  23409841.32007  23409846.26707  -6195357.29107  -4661228.78107      2693.714
      2098.993
 02  5 24  0 23  0.0000000  0  9G05G07G09G14G18G21G26G29G30
  21293777.72909  21293781.96109 -15476284.27709 -11891004.00209      1500.984
      1169.597
  22928458.73008  22928463.25507  -2320105.17007  -1689615.75507     -2511.320
     -1956.874
  20154130.39409  20154132.99709 -18160291.05109 -13987816.78809      -488.923
      -380.979
  24768594.85505  24768597.76205  -2366536.97705  -1685423.37305      2757.855
      2148.980
  24150254.18206  24150258.08605   2823280.93805   8140020.80605     -3239.408
     -2524.205
  23990741.14705  23990746.16406  -3112238.17406   -331663.49306     -1481.039
     -1154.052
  23495694.45607  23495699.01607   5613614.98807  10283483.53607     -4144.573
     -3229.534
  21631683.16409  21631687.09109  -8388587.45409  -6397540.97309     -3230.637
     -2517.379
  23394480.33307  23394485.92407  -6276080.98407  -4724130.24407      2687.932
      2094.488
 02  5 24  0 23 30.0000000  0  9G05G07G09G14G18G21G26G29G30
  21285242.83109  21285246.80509 -15521136.47109 -11925953.72409      1488.987
      1160.248
  22942836.35208  22942840.65407  -2244549.44507  -1630741.16607     -2525.881
     -1968.221
  20156961.57609  20156964.63609 -18145412.41909 -13976223.04709      -503.152
      -392.066
  24752871.87105  24752875.70405  -2449169.13305  -1749812.06605      2750.788
      2143.476
  24168773.75105  24168778.35805   2920598.42105   8215852.45305     -3248.554
     -2531.320
  23999245.20406  23999249.96306  -3067551.05006   -296842.41206     -1498.234
     -1167.449
  23519372.69707  23519377.29207   5738041.42607  10380439.14407     -4150.671
     -3234.287
  21650165.91609  21650168.91709  -8291460.00609  -6321857.26509     -3244.657
     -2528.303
  23379151.99807  23379155.81907  -6356629.51307  -4786895.17007      2681.802
      2089.721
 02  5 24  0 24  0.0000000  0  9G05G07G09G14G18G21G26G29G30
  21276774.61409  21276778.07209 -15565635.60309 -11960628.33909      1477.745
      1151.488
  22957295.50207  22957299.05407  -2168565.08307  -1571532.56607     -2539.596
     -1978.906
  20159872.93609  20159876.01909 -18130113.95709 -13964302.16409      -516.612
      -402.555
  24737183.75004  24737185.80105  -2531596.05205  -1814040.82205      2744.463
      2138.537
  24187343.72305          .00001   3018181.76401          .00011     -3256.817
          .000
  24007845.88806  24007850.53005  -3022356.28105   -261625.74605     -1514.594
     -1180.191
  23543083.38907  23543088.30007   5862642.93007  10477531.17607     -4155.937
     -3238.390
  21668726.83909  21668730.68409  -8193920.78309  -6245852.71609     -3257.816
     -2538.559
  23363857.79508  23363861.20607  -6437000.89607  -4849522.12807      2676.406
      2085.508
 02  5 24  0 24 30.0000000  0  9G05G07G09G14G18G21G26G29G30
  21268373.71309  21268377.54609 -15609783.16809 -11995029.00909      1465.497
      1141.943
  22971835.87307  22971840.25807  -2092155.69507  -1511992.77207     -2554.263
     -1990.335
  20162863.66809  20162866.58709 -18114396.73309 -13952054.97409      -531.110
      -413.852
  24721539.70905  24721544.83205  -2613817.21405  -1878109.16405      2737.032
      2132.726
  24205963.14906          .00001   3116026.36501          .00011     -3266.025
          .000
  24016541.85706  24016547.36606  -2976657.32106   -226016.15906     -1531.921
     -1193.703
  23566826.50907  23566831.63107   5987415.34007  10574756.35107     -4162.136
     -3243.222
  21687365.80809  21687369.73509  -8095973.61109  -6169530.28009     -3271.904
     -2549.534
  23348597.07007  23348601.13707  -6517195.84107  -4912011.60807      2670.001
      2080.514
 02  5 24  0 25  0.0000000  0  9G05G07G09G14G18G21G26G29G30
  21260041.32609  21260044.79609 -15653571.24309 -12029149.55909      1453.680
      1132.737
  22986458.13508  22986462.49507  -2015315.97407  -1452117.67407     -2568.381
     -2001.336
  20165935.66009  20165938.48509 -18098253.28109 -13939475.66109      -545.133
      -424.779
  24705935.41706  24705938.91105  -2695822.58105  -1942009.43805      2729.967
      2127.255
  24224631.73905  24224634.85705   3214136.08405      2548.87405     -3274.628
     -2551.663
  24025336.09006  24025341.81105  -2930447.77405   -190008.77005     -1548.715
     -1206.796
  23590603.98707  23590608.61707   6112363.66507  10672118.62407     -4167.755
     -3247.605
  21706083.04009  21706086.76709  -7997613.35109  -6092885.94709     -3285.457
     -2560.094
  23333371.00407  23333375.35306  -6597205.99006  -4974357.06206      2664.000
      2075.837
 02  5 24  0 25 30.0000000  0  9G05G07G09G14G18G21G26G29G30
  21251776.04809  21251779.78809 -15697004.77409 -12062993.83709      1441.804
      1123.483
  23001160.60407  23001164.75407  -1938053.33207  -1391913.01407     -2582.502
     -2012.336
  20169087.76709  20169090.95609 -18081688.75009 -13926568.23209      -559.244
      -435.773
  24690369.85105  24690372.54705  -2777615.27005  -2005743.92605      2722.799
      2121.661
  24243351.61606  24243356.86805   3312501.98505     79197.46105     -3283.165
     -2558.295
  24034224.31405  24034229.77705  -2883735.42205   -153609.55805     -1565.518
     -1219.874
  23614412.85007  23614417.60907   6237480.04007  10769611.84407     -4173.389
     -3251.988
  21724877.67409  21724881.58909  -7898847.83109  -6015925.83609     -3298.984
     -2570.635
  23318180.05307  23318185.08207  -6677035.69007  -5036561.89407      2657.902
      2071.094
 02  5 24  0 26  0.0000000  0  9G05G07G09G14G18G21G26G29G30
  21243579.32409  21243583.04009 -15740078.83409 -12096558.01109      1429.847
      1114.165
  23015944.17207  23015948.59107  -1860365.59607  -1331377.11807     -2596.610
     -2023.335
  20172321.08909  20172324.30109 -18064698.45109 -13913329.03709      -573.406
      -446.809
  24674847.76506  24674849.58205  -2859188.60405  -2069307.47105      2715.439
      2115.934
  24262118.39905  24262123.14605   3411125.34405    156046.66305     -3291.677
     -2564.938
  24043209.05505  24043214.28305  -2836517.46105   -116816.38705     -1582.284
     -1232.954
  23638254.00707  23638259.21207   6362766.42407  10867237.52707     -4178.970
     -3256.340
  21743749.39409  21743753.29709  -7799675.04509  -5938648.37309     -3312.501
     -2581.167
  23303024.87007  23303029.33607  -6756679.70107  -5098622.05907      2651.747
      2066.293
 02  5 24  0 26 30.0000000  0  9G05G07G09G14G18G21G26G29G30
  21235449.54009  21235453.12709 -15782800.53309 -12129847.61409      1418.109
      1105.019
  23030806.83307  23030811.30007  -1782262.14007  -1270517.29307     -2610.422
     -2034.093
  20175633.63109  20175636.76009 -18047289.66409 -13899763.74709      -587.344
      -457.672
  24659364.06005  24659368.26805  -2940547.57505  -2132704.07905      2708.304
      2110.361
  24280932.51305  24280934.86905   3509995.20905    233088.09005     -3299.791
     -2571.274
  24052288.91305  24052293.71905  -2788803.62205    -79636.79505     -1598.754
     -1245.766
  23662125.54707  23662130.45807   6488212.78207  10964987.86007     -4184.251
     -3260.455
  21762697.17309  21762701.01809  -7700104.78409  -5861061.19709     -3325.659
     -2591.421
  23287903.05807  23287906.59907  -6836144.76207  -5160542.82007      2645.774
      2061.640
 02  5 24  0 27  0.0000000  0  9G05G07G09G14G18G21G26G29G30
  21227388.58009  21227392.13209 -15825160.97609 -12162855.71809      1406.177
      1095.721
  23045749.41807  23045753.47407  -1703736.69807  -1209328.63207     -2624.333
     -2044.938
  20179027.74109  20179030.70709 -18029453.73509 -13885865.62009      -601.455
      -468.667
  24643925.95105  24643930.28805  -3021681.13005  -2195925.01605      2700.868
      2104.583
  24299795.32106  24299799.72805   3609116.53605    310325.36905     -3308.008
     -2577.651
  24061464.60706  24061470.63205  -2740586.84905    -42065.30505     -1615.403
     -1258.749
  23686029.06807  23686033.58107   6613825.15407  11062867.59207     -4189.622
     -3264.640
  21781721.60309  21781725.42509  -7600130.93809  -5783159.52909     -3338.966
     -2601.792
  23272816.79307  23272821.44607  -6915421.28807  -5222316.61207      2639.580
      2056.816
 02  5 24  0 27 30.0000000  0  9G05G07G09G14G18G21G26G29G30
  21219396.06309  21219399.41609 -15867162.96509 -12195584.51109      1394.226
      1086.409
  23060771.77708  23060775.32907  -1624794.53407  -1147815.24807     -2638.189
     -2055.732
  20182502.64509  20182505.90309 -18011193.43809 -13871636.81709      -615.612
      -479.697
  24628528.96305  24628532.08105  -3102590.19905  -2258970.98905      2693.353
      2098.710
  24318704.61206  24318709.81705   3708483.01705    387753.71605     -3316.107
     -2583.985
  24070734.75306  24070738.99606  -2691872.21706     -4105.88106     -1631.950
     -1271.651
  23709962.91907  23709967.79507   6739597.96307  11160872.30407     -4194.932
     -3268.772
  21800821.72309  21800825.41509  -7499758.95909  -5704947.63509     -3352.191
     -2612.096
  23257765.52507  23257769.62807  -6994511.51407  -5283945.21007      2633.369
      2051.972
 02  5 24  0 28  0.0000000  0  9G05G07G09G14G18G21G26G29G30
  21211471.61309  21211475.24709 -15908805.36509 -12228033.10909      1381.702
      1076.649
  23075873.00408  23075876.43807  -1545437.11107  -1085978.27207     -2652.539
     -2066.917
  20186058.25609  20186061.46809 -17992508.15509 -13857076.86009      -630.306
      -491.147
  24613174.62904  24613176.49305  -3183271.79605  -2321839.76105      2685.190
      2092.348
  24337659.53506  24337663.79005   3808091.84705    465370.81105     -3324.679
     -2590.654
  24080099.28106  24080104.31005  -2642661.38705     34240.18805     -1648.991
     -1284.923
  23733926.73207  23733931.35107   6865529.42407  11259000.63607     -4200.720
     -3273.288
  21819997.13909  21820000.52609  -7398990.77009  -5626426.99709     -3365.896
     -2622.774
  23242751.33507  23242756.69207  -7073414.01807  -5345427.59707      2626.564
      2046.669
 02  5 24  0 28 30.0000000  0  9G05G07G09G14G18G21G26G29G30
  21203615.49109  21203619.31209 -15950089.87809 -12260202.83509      1370.569
      1067.975
  23091052.51307  23091056.56907  -1465668.57807  -1023820.98107     -2665.384
     -2076.923
  20189694.52909  20189697.71809 -17973399.57409 -13842187.06109      -643.624
      -501.525
  24597864.94305  24597864.81405  -3263725.61205  -2384531.02105      2678.360
      2087.049
  24356658.52805  24356663.00605   3907938.08905    543173.01805     -3331.730
     -2596.146
  24089557.46005  24089563.63705  -2592957.82405     72970.15405     -1664.614
     -1297.103
  23757919.73207  23757924.77207   6991614.86807  11357248.96807     -4204.994
     -3276.613
  21839247.56209  21839251.87609  -7297830.75209  -5547601.05509     -3378.119
     -2632.298
  23227772.27208  23227776.69107  -7152129.79607  -5406764.45807      2621.120
      2042.428
 02  5 24  0 29  0.0000000  0  9G05G07G09G14G18G21G26G29G30
  21195827.05509  21195830.86509 -15991017.94809 -12292094.80709      1358.310
      1058.423
  23106309.10207  23106313.06407  -1385492.90207   -961346.43607     -2679.282
     -2087.752
  20193411.11009  20193414.32209 -17953869.50109 -13826968.81609      -658.047
      -512.763
  24582598.79405  24582600.77505  -3343950.89205  -2447044.18305      2670.328
      2080.787
  24375703.51205  24375709.85405   4008016.40105    621156.00205     -3339.801
     -2602.442
  24099108.28205  24099112.74805  -2542765.31105    112081.19205     -1681.259
     -1310.061
  23781941.29307  23781946.68607   7117850.12007  11455614.02507     -4210.324
     -3280.772
  21858571.44709  21858575.26909  -7196283.07709  -5468473.04109     -3391.369
     -2642.624
  23212828.73007  23212832.98507  -7230659.75007  -5467956.53507      2614.556
      2037.316
 02  5 24  0 29 30.0000000  0  9G05G07G09G14G18G21G26G29G30
  21188106.06109  21188109.88209 -16031591.52309 -12323710.55009      1346.590
      1049.290
  23121642.66107  23121647.01007  -1304914.65107   -898558.19807     -2692.585
     -2098.123
  20197207.12209  20197210.34609 -17933920.12709 -13811423.84709      -671.916
      -523.571
  24567375.68205  24567379.60905  -3423947.72705  -2509379.30605      2662.795
      2074.897
  24394790.21505  24394795.95905   4108320.78605    699315.15505     -3347.164
     -2608.171
  24108752.81805  24108757.96405  -2492088.09405    151569.92005     -1697.270
     -1322.547
  23805991.43407  23805996.38107   7244230.27407  11554092.00307     -4215.001
     -3284.415
  21877968.15809  21877971.82709  -7094352.74109  -5389046.82309     -3403.977
     -2652.448
  23197919.51807  23197923.80807  -7309005.50007  -5529005.07607      2608.504
      2032.602
 02  5 24  0 30  0.0000000  0  9G05G07G09G14G18G21G26G29G30
  21180453.71009  21180457.69609 -16071805.57409 -12355046.14409      1334.528
      1039.891
  23137053.52007  23137057.00107  -1223931.15007   -835454.17207     -2706.118
     -2108.663
  20201084.14109  20201087.27009 -17913546.56509 -13795548.34409      -686.134
      -534.650
  24552198.13605  24552200.21105  -3503708.97305  -2571530.90105      2654.806
      2068.672
  24413921.89806  24413926.08305   4208852.68605    777651.55005     -3354.761
     -2614.088
  24118488.56305  24118493.65005  -2440924.04805    191437.98005     -1713.515
     -1335.207
  23830068.78207  23830074.10307   7370757.55007  11652684.60807     -4219.938
     -3288.262
  21897438.18509  21897442.17009  -6992037.27409  -5309320.53109     -3416.863
     -2662.490
  23183046.56707  23183052.65107  -7387161.37107  -5589905.66507      2602.086
      2027.597
 02  5 24  0 30 30.0000000  0  9G05G07G09G14G18G21G26G29G30
  21172870.06109  21172873.84709 -16111656.84709 -12386099.06009      1322.246
      1030.320
  23152541.51907  23152545.39907  -1142541.96707   -772034.01307     -2719.817
     -2119.341
  20205042.36409  20205045.30609 -17892745.87109 -13779340.01809      -700.554
      -545.885
  24537066.64806  24537069.77805  -3583229.61205  -2633494.95605      2646.561
      2062.263
  24433095.98605  24433101.10805   4309611.38205    856164.77805     -3362.451
     -2620.100
  24128317.30106  24128323.20805  -2389272.57705    231685.81805     -1729.921
     -1347.985
  23854174.12107  23854180.22806   7497432.21706  11751392.07406     -4225.012
     -3292.209
  21916981.63509  21916985.29209  -6889336.59909  -5229294.07209     -3429.818
     -2672.584
  23168211.30507  23168215.60707  -7465123.71407  -5650655.43707      2595.409
      2022.393
 02  5 24  0 31  0.0000000  0  9G05G07G09G14G18G21G26G29G30
  21165356.30109  21165360.04009 -16151142.58609 -12416867.13609      1309.888
      1020.689
  23168106.27107  23168110.15107  -1060746.71007   -708297.46107     -2733.440
     -2129.953
  20209082.43509  20209085.48309 -17871515.32909 -13762796.73609      -715.061
      -557.191
  24521980.61605  24521981.61305  -3662504.63805  -2695267.67205      2638.175
      2055.722
  24452312.31405  24452317.75305   4410596.00305    934853.97205     -3370.077
     -2626.041
  24138239.77406  24138244.90805  -2337132.87005    272314.11705     -1746.293
     -1360.762
  23878307.56207  23878312.56806   7624254.36906  11850214.46306     -4230.033
     -3296.125
  21936598.26209  21936602.07209  -6786250.40009  -5148967.19709     -3442.809
     -2682.707
  23153412.74207  23153416.17707  -7542889.08107  -5711251.75307      2588.672
      2017.143
 02  5 24  0 31 30.0000000  0  9G05G07G09G14G18G21G26G29G30
  21157911.39709  21157915.19509 -16190265.01209 -12447352.11709      1298.152
      1011.547
  23183747.77607  23183752.25407   -978550.03207   -644248.10707     -2746.432
     -2140.075
  20213203.98509  20213207.15009 -17849857.21309 -13745920.28309      -728.943
      -568.008
  24506941.09205  24506943.80005  -3741534.11805  -2756849.11805      2630.307
      2049.584
  24471570.71405  24471577.79405   4511800.97605   1013714.90105     -3377.016
     -2631.434
  24148253.28205  24148259.88105  -2284509.39905    313319.40605     -1762.047
     -1373.024
  23902468.11207  23902474.44206   7751219.00506  11949147.84006     -4234.375
     -3299.511
  21956287.16309  21956290.43309  -6682783.87809  -5068343.97009     -3455.064
     -2692.255
  23138651.39307  23138655.64807  -7620459.19307  -5771695.90307      2582.536
      2012.359
 02  5 24  0 32  0.0000000  0  9G05G07G09G14G18G21G26G29G30
  21150535.53609  21150539.20509 -16229025.71309 -12477555.22609      1285.998
      1002.076
  23199465.09107  23199469.88507   -895955.94207   -579889.07307     -2759.727
     -2150.438
